{
    "1101020018": {
        "latitude": 25.0369044,
        "longitude": 121.5535646,
        "country": "Taiwan",
        "city": "Daan District",
        "state": null,
        "stateCode": null,
        "zipcode": "106",
        "streetName": "Section 4, Ren'ai Road",
        "streetNumber": "280",
        "countryCode": "TW"
    },
    "1101100011": {
        "latitude": 25.0588655,
        "longitude": 121.5226251,
        "country": "Taiwan",
        "city": "Zhongshan District",
        "state": null,
        "stateCode": null,
        "zipcode": "104",
        "streetName": "Section 2, Zhongshan North Road",
        "streetNumber": "92",
        "countryCode": "TW"
    },
    "1101150011": {
        "latitude": 25.0962451,
        "longitude": 121.5203957,
        "country": "Taiwan",
        "city": "Shilin District",
        "state": null,
        "stateCode": null,
        "zipcode": "111",
        "streetName": "Wenchang Road",
        "streetNumber": "95",
        "countryCode": "TW"
    },
    "1111060015": {
        "latitude": 25.1356827,
        "longitude": 121.7214846,
        "country": "Taiwan",
        "city": "Anle District",
        "state": null,
        "stateCode": null,
        "zipcode": "204",
        "streetName": "Jijin 1st Road",
        "streetNumber": null,
        "countryCode": "TW"
    },
    "1131010011": {
        "latitude": 24.9972647,
        "longitude": 121.4527715,
        "country": "Taiwan",
        "city": "Banqiao District",
        "state": null,
        "stateCode": null,
        "zipcode": "220",
        "streetName": "Section 2, Nanya South Road",
        "streetNumber": "21",
        "countryCode": "TW"
    },
    "1131050515": {
        "latitude": 24.985978,
        "longitude": 121.5358405,
        "country": "Taiwan",
        "city": "Xindian District",
        "state": null,
        "stateCode": null,
        "zipcode": "231",
        "streetName": "Jianguo Road",
        "streetNumber": "289",
        "countryCode": "TW"
    },
    "1132070011": {
        "latitude": 25.0626969,
        "longitude": 121.3692179,
        "country": "Taiwan",
        "city": "Guishan Township",
        "state": null,
        "stateCode": null,
        "zipcode": "333",
        "streetName": "Wenhua 1st Road",
        "streetNumber": null,
        "countryCode": "TW"
    },
    "1137010024": {
        "latitude": 24.0715309,
        "longitude": 120.5446075,
        "country": "Taiwan",
        "city": "Changhua City",
        "state": null,
        "stateCode": null,
        "zipcode": "500",
        "streetName": "Nanxiao Street",
        "streetNumber": "135",
        "countryCode": "TW"
    },
    "1140010510": {
        "latitude": 23.462333,
        "longitude": 120.2859421,
        "country": "Taiwan",
        "city": "Puzi City",
        "state": null,
        "stateCode": null,
        "zipcode": "613",
        "streetName": "嘉朴路西段",
        "streetNumber": "6",
        "countryCode": "TW"
    },
    "1141310019": {
        "latitude": 23.0209835,
        "longitude": 120.2220415,
        "country": "Taiwan",
        "city": "Yongkang District",
        "state": null,
        "stateCode": null,
        "zipcode": "710",
        "streetName": "Zhonghua Road",
        "streetNumber": "901",
        "countryCode": "TW"
    },
    "1142100017": {
        "latitude": 22.6556627,
        "longitude": 120.3572375,
        "country": "Taiwan",
        "city": "Niaosong District",
        "state": null,
        "stateCode": null,
        "zipcode": "833",
        "streetName": "Dapi Road",
        "streetNumber": null,
        "countryCode": "TW"
    },
    "1142120001": {
        "latitude": 22.7645226,
        "longitude": 120.3628399,
        "country": "Taiwan",
        "city": "Yanchao District",
        "state": null,
        "stateCode": null,
        "zipcode": "824",
        "streetName": "Yida Road",
        "streetNumber": null,
        "countryCode": "TW"
    },
    "1145010010": {
        "latitude": 23.9950092,
        "longitude": 121.5923675,
        "country": "Taiwan",
        "city": "Hualian City",
        "state": null,
        "stateCode": null,
        "zipcode": "970",
        "streetName": "Section 3, Zhongyang Road",
        "streetNumber": "707",
        "countryCode": "TW"
    },
    "1301200010": {
        "latitude": 24.9996897,
        "longitude": 121.5575845,
        "country": "Taiwan",
        "city": "Wenshan District",
        "state": null,
        "stateCode": null,
        "zipcode": "116",
        "streetName": "Section 3, Xinglong Road",
        "streetNumber": "111",
        "countryCode": "TW"
    },
    "1302050014": {
        "latitude": 22.6477347,
        "longitude": 120.310416,
        "country": "Taiwan",
        "city": "Sanmin District",
        "state": null,
        "stateCode": null,
        "zipcode": "807",
        "streetName": "Shiquan 1st Road",
        "streetNumber": "100",
        "countryCode": "TW"
    },
    "1317040011": {
        "latitude": 24.1218042,
        "longitude": 120.6516957,
        "country": "Taiwan",
        "city": "Nan District",
        "state": null,
        "stateCode": null,
        "zipcode": "402",
        "streetName": "Section 1, Jianguo North Road",
        "streetNumber": "110",
        "countryCode": "TW"
    },
    "1317050017": {
        "latitude": 24.1576494,
        "longitude": 120.6805492,
        "country": "Taiwan",
        "city": "Bei District",
        "state": null,
        "stateCode": null,
        "zipcode": "404",
        "streetName": "Yude Road",
        "streetNumber": "2",
        "countryCode": "TW"
    },
    "1331040513": {
        "latitude": 24.9931046,
        "longitude": 121.4936519,
        "country": "Taiwan",
        "city": "Zhonghe District",
        "state": null,
        "stateCode": null,
        "zipcode": "235",
        "streetName": "Zhongzheng Road",
        "streetNumber": "291",
        "countryCode": "TW"
    },
    "1434020015": {
        "latitude": 24.671989,
        "longitude": 121.770937,
        "country": "Taiwan",
        "city": "Luodong Township",
        "state": null,
        "stateCode": null,
        "zipcode": "265",
        "streetName": "Nanchang Street",
        "streetNumber": "81",
        "countryCode": "TW"
    },
    "0401180014": {
        "latitude": 25.0407356,
        "longitude": 121.5183016,
        "country": "Taiwan",
        "city": "Zhongzheng District",
        "state": null,
        "stateCode": null,
        "zipcode": "100",
        "streetName": "Zhongshan South Road",
        "streetNumber": null,
        "countryCode": "TW"
    },
    "0421040011": {
        "latitude": 23.0021803,
        "longitude": 120.2189867,
        "country": "Taiwan",
        "city": "Bei District",
        "state": null,
        "stateCode": null,
        "zipcode": "704",
        "streetName": "Shengli Road",
        "streetNumber": "138",
        "countryCode": "TW"
    },
    "0439010518": {
        "latitude": 23.6975385,
        "longitude": 120.5259091,
        "country": "Taiwan",
        "city": "Douliu City",
        "state": null,
        "stateCode": null,
        "zipcode": "640",
        "streetName": "Section 2, Yunlin Road",
        "streetNumber": "579",
        "countryCode": "TW"
    },
    "0501110514": {
        "latitude": 25.0704411,
        "longitude": 121.5903154,
        "country": "Taiwan",
        "city": "Neihu District",
        "state": null,
        "stateCode": null,
        "zipcode": "114",
        "streetName": "Section 2, Chenggong Road",
        "streetNumber": "325",
        "countryCode": "TW"
    },
    "0601160016": {
        "latitude": 25.1201836,
        "longitude": 121.5201598,
        "country": "Taiwan",
        "city": "Beitou District",
        "state": null,
        "stateCode": null,
        "zipcode": "112",
        "streetName": "Section 2, Shipai Road",
        "streetNumber": "201",
        "countryCode": "TW"
    },
    "0602030026": {
        "latitude": 22.6797317,
        "longitude": 120.3223833,
        "country": "Taiwan",
        "city": "Zuoying District",
        "state": null,
        "stateCode": null,
        "zipcode": "813",
        "streetName": "Dazhong 1st Road",
        "streetNumber": "386",
        "countryCode": "TW"
    },
    "0617060018": {
        "latitude": 24.177611,
        "longitude": 120.627148,
        "country": "Taiwan",
        "city": "Xitun District",
        "state": null,
        "stateCode": null,
        "zipcode": "407",
        "streetName": "Section 3, Taizhonggang Road",
        "streetNumber": null,
        "countryCode": "TW"
    },
    "0936060016": {
        "latitude": 24.2472297,
        "longitude": 120.5428236,
        "country": "Taiwan",
        "city": "Wuqi District",
        "state": null,
        "stateCode": null,
        "zipcode": "435",
        "streetName": "Section 8, Taiwan Boulevard",
        "streetNumber": "699",
        "countryCode": "TW"
    },
    "0937010019": {
        "latitude": 24.0647705,
        "longitude": 120.5374429,
        "country": "Taiwan",
        "city": "Changhua City",
        "state": null,
        "stateCode": null,
        "zipcode": "500",
        "streetName": "Section 1, Zhongshan Road",
        "streetNumber": "542",
        "countryCode": "TW"
    },
    "0943030019": {
        "latitude": 22.4740818,
        "longitude": 120.4592153,
        "country": "Taiwan",
        "city": "Donggang Township",
        "state": null,
        "stateCode": null,
        "zipcode": "928",
        "streetName": "Section 1, Zhongzheng Road",
        "streetNumber": "210",
        "countryCode": "TW"
    }
}
